{"Abbot St_North Dorchester": {"lat": 42.297032, "lng": -71.085913, "address": "Abbot Street, Roxbury, Boston, Suffolk County, Massachusetts, 02121, United States"}, "Abbotsford St_Roxbury": {"lat": 42.314593, "lng": -71.092528, "address": "Abbotsford Street, Roxbury, Boston, Suffolk County, Massachusetts, 02119, United States"}, "Aberdeen St_Fenway/Kenmore": {"lat": 42.3464796, "lng": -71.1038817, "address": "Aberdeen Street, Audubon Circle, Boston, Suffolk County, Massachusetts, 02215, United States"}, "Barry St_North Dorchester": {"lat": 42.2538149, "lng": -71.1271224, "address": "Barry Street, Hyde Park, Boston, Suffolk County, Massachusetts, 02136, United States"}, "Bartlett St_Charlestown": {"lat": 42.3776384, "lng": -71.0625722, "address": "Bartlett Street, Charlestown, Boston, Suffolk County, Massachusetts, 02129, United States"}, "Bartlett St_Roxbury": {"lat": 42.328501, "lng": -71.088853, "address": "Bartlett Street, Roxbury Crossing, Roxbury, Boston, Suffolk County, Massachusetts, 02119, United States"}, "Acadia St_South Boston": {"lat": 42.338182, "lng": -71.0300047, "address": "Acadia Street, City Point, South Boston, Boston, Suffolk County, Massachusetts, 02127, United States"}, "Agassiz Rd_DCR": {"lat": 42.3432041, "lng": -71.0938419, "address": "Agassiz Road, Boston, Suffolk County, Massachusetts, 02115, United States"}, "Addison St_East Boston": {"lat": 42.3851279, "lng": -71.0151647, "address": "Addison Street, East Boston, Boston, Suffolk County, Massachusetts, 02128, United States"}, "Aguadilla St_South End": {"lat": 42.341473, "lng": -71.074713, "address": "Aguadilla Street, Villa Victoria, South End, Boston, Suffolk County, Massachusetts, 02118, United States"}, "Alaska St_Roxbury": {"lat": 42.320972, "lng": -71.078491, "address": "Alaska Street, Roxbury, Boston, Suffolk County, Massachusetts, 02119, United States"}, "Albion St_North Dorchester": {"lat": 42.2530893, "lng": -71.1149716, "address": "Albion Street, Fairmount, Hyde Park, Boston, Suffolk County, Massachusetts, 02137, United States"}, "Belmore Ter_Jamaica Plain": {"lat": 42.319197, "lng": -71.110504, "address": "Belmore Terrace, Jamaica Plain, Boston, Suffolk County, Massachusetts, 02130, United States"}, "Bennington St_East Boston": {"lat": 42.3879014, "lng": -71.0024661, "address": "Bennington Street, Orient Heights, East Boston, Boston, Suffolk County, Massachusetts, 02152, United States"}, "Brackett St_Allston/Brighton": {"lat": 42.350893, "lng": -71.165293, "address": "Brackett Street, Oak Square, Brighton, Boston, Suffolk County, Massachusetts, 02135, United States"}, "Brent St_South Dorchester": {"lat": 42.2892988, "lng": -71.069375, "address": "Brent Street, Dorchester Center, Dorchester, Boston, Suffolk County, Massachusetts, 02124, United States"}, "Akron St_Roxbury": {"lat": 42.325703, "lng": -71.085315, "address": "Akron Street, Nubian Square, Roxbury, Boston, Suffolk County, Massachusetts, 02119, United States"}, "Albany St_South End": {"lat": 42.3354687, "lng": -71.0707456, "address": "Albany Street, South End, Boston, Suffolk County, Massachusetts, 02118, United States"}, "Boston St_South Boston": {"lat": 42.32811, "lng": -71.0578938, "address": "Boston Street, South Boston, Boston, Suffolk County, Massachusetts, 01125, United States"}, "Boston St_North Dorchester": {"lat": 42.3293148, "lng": -71.0571817, "address": "Boston Street, South Boston, Boston, Suffolk County, Massachusetts, 01125, United States"}, "Alpha Rd_South Dorchester": {"lat": 42.2955757, "lng": -71.0697584, "address": "Alpha Road, Dorchester Center, Dorchester, Boston, Suffolk County, Massachusetts, 02124, United States"}, "American Legion Hwy_South Dorchester": {"lat": 42.2850984, "lng": -71.111111, "address": "American Legion Highway, Roslindale, Boston, Suffolk County, Massachusetts, 02131, United States"}, "American Legion Hwy_Roxbury": {"lat": 42.296685, "lng": -71.09182, "address": "American Legion Highway, Roxbury, Boston, Suffolk County, Massachusetts, 02121, United States"}, "Ackley Pl_Jamaica Plain": {"lat": 42.311114, "lng": -71.103404, "address": "Ackley Place, Roxbury, Boston, Suffolk County, Massachusetts, 02130, United States"}, "Alexander St_North Dorchester": {"lat": 42.315865, "lng": -71.070174, "address": "Alexander Street, Grove Hall, Roxbury, Boston, Suffolk County, Massachusetts, 02125, United States"}, "Alleghany St_Mission Hill": {"lat": 42.3315575, "lng": -71.1017756, "address": "Alleghany Street, Mission Hill, Boston, Suffolk County, Massachusetts, 02120, United States"}, "Arboretum Rd_Jamaica Plain": {"lat": 42.3074545, "lng": -71.1209438, "address": "Arnold Arboretum Horticulture Library, Meadow Road, Jamaica Plain, Boston, Suffolk County, Massachusetts, 02130, United States"}, "Arlington St_Back Bay": {"lat": 42.3478505, "lng": -71.0690408, "address": "Arlington Street, Financial District, Back Bay, Boston, Suffolk County, Massachusetts, 02117, United States"}, "Arlington St_Allston/Brighton": {"lat": 42.3554256, "lng": -71.0723501, "address": "Arlington Street, Beacon Hill, Boston, Suffolk County, Massachusetts, 02116, United States"}, "Anderson St_Beacon Hill": {"lat": 42.3603111, "lng": -71.0678007, "address": "Anderson Street, Beacon Hill, Boston, Suffolk County, Massachusetts, 02114, United States"}, "Arcadia Ter_North Dorchester": {"lat": 42.3017683, "lng": -71.0615732, "address": "Arcadia Terrace, Mount Ida, Dorchester, Boston, Suffolk County, Massachusetts, 02212, United States"}, "Avenue De Lafayette_Chinatown": {"lat": 42.3534233, "lng": -71.061241, "address": "Avenue De Lafayette, Downtown Crossing, Downtown Boston, Boston, Suffolk County, Massachusetts, 02102, United States"}, "Bond St_South End": {"lat": 42.3432793, "lng": -71.0695766, "address": "Bond Street, South End, Boston, Suffolk County, Massachusetts, 02118, United States"}, "Chestnut St_Beacon Hill": {"lat": 42.3566379, "lng": -71.0716043, "address": "Chestnut Street, Beacon Hill, Boston, Suffolk County, Massachusetts, 02108, United States"}, "Chestnut St_Charlestown": {"lat": 42.3750363, "lng": -71.0591025, "address": "Chestnut Street, Charlestown, Boston, Suffolk County, Massachusetts, 02129, United States"}, "Condor St_East Boston": {"lat": 42.3826131, "lng": -71.0399345, "address": "Condor Street, Eagle Hill, East Boston, Boston, Suffolk County, Massachusetts, 02128, United States"}, "Creston St_North Dorchester": {"lat": 42.312047, "lng": -71.078918, "address": "Creston Street, Grove Hall, Roxbury, Boston, Suffolk County, Massachusetts, 02121, United States"}, "D St_South Boston": {"lat": 42.3395893, "lng": -71.0499166, "address": "D Street, Dorchester Heights, South Boston, Boston, Suffolk County, Massachusetts, 02127, United States"}, "Deer St_North Dorchester": {"lat": 42.311926, "lng": -71.058298, "address": "Deer Street, Savin Hill, Dorchester, Boston, Suffolk County, Massachusetts, 02125, United States"}, "Donwood Ter_South Dorchester": {"lat": 42.274219, "lng": -71.084882, "address": "Donwood Terrace, Mattapan, Boston, Suffolk County, Massachusetts, 02126, United States"}, "Beacon St_Allston/Brighton": {"lat": 42.35445, "lng": -71.1423663, "address": "North Beacon Street, Allston Heights, Allston, Boston, Suffolk County, Massachusetts, 02134, United States"}, "Beacon St_Beacon Hill": {"lat": 42.3582214, "lng": -71.0612733, "address": "Beacon Street, Beacon Hill, Boston, Suffolk County, Massachusetts, 02133, United States"}, "Beacon St_Fenway/Kenmore": {"lat": 42.3492749, "lng": -71.0952886, "address": "Beacon Street, Fenway-Kenmore, Boston, Suffolk County, Massachusetts, 02115, United States"}, "Beacon St_Back Bay": {"lat": 42.3548121, "lng": -71.0747923, "address": "Beacon Street, Back Bay, Boston, Suffolk County, Massachusetts, 02116, United States"}, "Binford St_South Boston": {"lat": 42.3464865, "lng": -71.0500909, "address": "Binford Street, Seaport, South Boston, Boston, Suffolk County, Massachusetts, 02205, United States"}, "Bluefield Ter_South Dorchester": {"lat": 42.273233, "lng": -71.085925, "address": "Bluefield Terrace, Mattapan, Boston, Suffolk County, Massachusetts, 02126, United States"}, "Bowker St_West End": {"lat": 42.36265, "lng": -71.06084, "address": "Bowker Street, West End, Boston, Suffolk County, Massachusetts, 02112, United States"}, "Boyd St_North Dorchester": {"lat": 42.300146, "lng": -71.068342, "address": "Boyd Street, Mount Ida, Dorchester, Boston, Suffolk County, Massachusetts, 02212, United States"}, "Brainerd Rd_Allston/Brighton": {"lat": 42.3465793, "lng": -71.1350915, "address": "Brainerd Road, Allston Village, Allston, Boston, Suffolk County, Massachusetts, 02134, United States"}, "Broad St_Downtown": {"lat": 42.3571657, "lng": -71.051922, "address": "Broad Street, Financial District, Downtown Boston, Boston, Suffolk County, Massachusetts, 02110, United States"}, "Broadway_Back Bay": {"lat": 42.3497623, "lng": -71.0670688, "address": "Broadway Street, Financial District, Back Bay, Boston, Suffolk County, Massachusetts, 02111, United States"}, "Brock St_Allston/Brighton": {"lat": 42.350929, "lng": -71.160363, "address": "Brock Street, Brighton Center, Brighton, Boston, Suffolk County, Massachusetts, 02135, United States"}, "Brook Ave_North Dorchester": {"lat": 42.3216017, "lng": -71.0740576, "address": "Brook Avenue, Roxbury, Boston, Suffolk County, Massachusetts, 02119, United States"}, "Brookdale St_Jamaica Plain": {"lat": 42.2861612, "lng": -71.1220927, "address": "Brookdale Street, Mount Hope, Roslindale, Boston, Suffolk County, Massachusetts, 02131, United States"}, "Brookford St_North Dorchester": {"lat": 42.318422, "lng": -71.076009, "address": "Brookford Street, Roxbury, Boston, Suffolk County, Massachusetts, 02119, United States"}, "Brookley Rd_Jamaica Plain": {"lat": 42.303591, "lng": -71.1070097, "address": "Brookley Road, Jamaica Plain, Boston, Suffolk County, Massachusetts, 02130, United States"}, "Brooks St_East Boston": {"lat": 42.3757054, "lng": -71.0318868, "address": "Brooks Street, The Flats, East Boston, Boston, Suffolk County, Massachusetts, 02128, United States"}, "Albemarle St_Back Bay": {"lat": 42.3424796, "lng": -71.0831609, "address": "Albemarle Street, Boston, Suffolk County, Massachusetts, 02199, United States"}, "Alcorn St_Allston/Brighton": {"lat": 42.3538561, "lng": -71.1228262, "address": "Alcorn Street, Packard's Corner, Allston, Boston, Suffolk County, Massachusetts, 02134, United States"}, "Alford St_Charlestown": {"lat": 42.3850981, "lng": -71.0736888, "address": "Alford Street, Charlestown, Boston, Suffolk County, Massachusetts, 02129, United States"}, "Amory St_Roxbury": {"lat": 42.3144135, "lng": -71.104848, "address": "Amory Street, Roxbury, Boston, Suffolk County, Massachusetts, 02130, United States"}, "Amory St_Jamaica Plain": {"lat": 42.3091135, "lng": -71.107929, "address": "Amory Street, Jamaica Plain, Boston, Suffolk County, Massachusetts, 02130, United States"}, "Arborway_DCR": {"lat": 42.3059084, "lng": -71.1195047826217, "address": "Arborway, Jamaica Plain, Boston, Suffolk County, Massachusetts, United States"}, "Arcadia Park_North Dorchester": {"lat": 42.301013, "lng": -71.063307, "address": "Arcadia Park, Mount Ida, Dorchester, Boston, Suffolk County, Massachusetts, 02212, United States"}, "Barry Park_North Dorchester": {"lat": 42.309192, "lng": -71.067222, "address": "Barry Park, Kane Square, Dorchester, Boston, Suffolk County, Massachusetts, 02212, United States"}, "Beethoven St_Jamaica Plain": {"lat": 42.315648, "lng": -71.099503, "address": "Beethoven Street, Roxbury, Boston, Suffolk County, Massachusetts, 02130, United States"}, "Bellevue St_North Dorchester": {"lat": 42.2836753, "lng": -71.156786, "address": "Bellevue Street, Highland, West Roxbury, Boston, Suffolk County, Massachusetts, 02132, United States"}, "Bicknell St_North Dorchester": {"lat": 42.297543, "lng": -71.082792, "address": "Bicknell Street, Roxbury, Boston, Suffolk County, Massachusetts, 02121, United States"}, "Aldwin Rd_Jamaica Plain": {"lat": 42.2944531, "lng": -71.1191286, "address": "Aldwin Road, Forest Hills, Roslindale, Boston, Suffolk County, Massachusetts, 02131, United States"}, "Algonquin St_North Dorchester": {"lat": 42.297622, "lng": -71.074467, "address": "Algonquin Street, Dorchester Center, Dorchester, Boston, Suffolk County, Massachusetts, 02212, United States"}, "Arion St'_North Dorchester": {"lat": 42.3162819, "lng": -71.0663588, "address": "Arion Street, Uphams Corner, Dorchester, Boston, Suffolk County, Massachusetts, 02125, United States"}, "Arklow St_Jamaica Plain": {"lat": 42.3244208, "lng": -71.104979, "address": "Arklow Street, Jamaica Plain, Boston, Suffolk County, Massachusetts, 02120, United States"}, "Arion St_North Dorchester": {"lat": 42.3162819, "lng": -71.0663588, "address": "Arion Street, Uphams Corner, Dorchester, Boston, Suffolk County, Massachusetts, 02125, United States"}, "Ashmont Park_South Dorchester": {"lat": 42.286304, "lng": -71.063251, "address": "Ashmont Park, Ashmont, Dorchester, Boston, Suffolk County, Massachusetts, 02124, United States"}, "Auckland St_North Dorchester": {"lat": 42.311257, "lng": -71.0565785, "address": "Auckland Street, Savin Hill, Dorchester, Boston, Suffolk County, Massachusetts, 02125, United States"}, "Alpine St_Roxbury": {"lat": 42.325387, "lng": -71.08655, "address": "Alpine Street, Nubian Square, Roxbury, Boston, Suffolk County, Massachusetts, 02119, United States"}, "Ames St_South Dorchester": {"lat": 42.2896704, "lng": -71.0842742, "address": "Ames Street, Franklin Field Apartments, Mattapan, Boston, Suffolk County, Massachusetts, 02126, United States"}, "Albion Pl_Charlestown": {"lat": 42.3808596, "lng": -71.0703749, "address": "Albion Place, Charlestown, Boston, Suffolk County, Massachusetts, 02129, United States"}, "Armandine St_South Dorchester": {"lat": 42.284425, "lng": -71.07359, "address": "Armandine Street, Ashmont, Dorchester, Boston, Suffolk County, Massachusetts, 02124, United States"}, "Armstrong St_Jamaica Plain": {"lat": 42.3212629, "lng": -71.1039742, "address": "Armstrong Street, Jamaica Plain, Boston, Suffolk County, Massachusetts, 02120, United States"}, "Ashcroft St_Jamaica Plain": {"lat": 42.3212251, "lng": -71.1141593, "address": "Ashcroft Street, Jamaica Plain, Boston, Suffolk County, Massachusetts, 02130, United States"}, "Ashley St_Jamaica Plain": {"lat": 42.32075, "lng": -71.103675, "address": "Ashley Street, Jamaica Plain, Boston, Suffolk County, Massachusetts, 02120, United States"}, "Ashton St_South Dorchester": {"lat": 42.284626, "lng": -71.090193, "address": "Ashton Street, Mattapan, Boston, Suffolk County, Massachusetts, 02126, United States"}, "Allston St_South Dorchester": {"lat": 42.3486046, "lng": -71.1376139, "address": "Allston Street, Allston Heights, Allston, Boston, Suffolk County, Massachusetts, 02134, United States"}, "Allston St_Allston/Brighton": {"lat": 42.3486046, "lng": -71.1376139, "address": "Allston Street, Allston Heights, Allston, Boston, Suffolk County, Massachusetts, 02134, United States"}, "Allston St_Charlestown": {"lat": 42.3797246, "lng": -71.0640321, "address": "Allston Street, Charlestown, Boston, Suffolk County, Massachusetts, 02129, United States"}, "A St_South Boston": {"lat": 42.3426063, "lng": -71.0546026, "address": "A Street, South Boston, Boston, Suffolk County, Massachusetts, 02205, United States"}, "Arlington Ave_Charlestown": {"lat": 42.387222, "lng": -71.074854, "address": "Arlington Avenue, Charlestown, Boston, Suffolk County, Massachusetts, 02145, United States"}, "Adams St_Charlestown": {"lat": 42.3743319, "lng": -71.0584816, "address": "Adams Street, Charlestown, Boston, Suffolk County, Massachusetts, 02129, United States"}, "Adams St_South Dorchester": {"lat": 42.2722633, "lng": -71.0679446, "address": "Adams Street, Lower Mills, Dorchester, Boston, Suffolk County, Massachusetts, 02124, United States"}, "Adams St_North Dorchester": {"lat": 42.2722633, "lng": -71.0679446, "address": "Adams Street, Lower Mills, Dorchester, Boston, Suffolk County, Massachusetts, 02124, United States"}, "Adams St_Roxbury": {"lat": 42.3280392, "lng": -71.0771567, "address": "Adams Street, Nubian Square, Roxbury, Boston, Suffolk County, Massachusetts, 02119, United States"}, "Arbutus St_South Dorchester": {"lat": 42.2876607, "lng": -71.0891421, "address": "Arbutus Street, Mattapan, Boston, Suffolk County, Massachusetts, 02126, United States"}, "Annapolis St_North Dorchester": {"lat": 42.3172117, "lng": -71.0609959, "address": "Annapolis Street, Uphams Corner, Dorchester, Boston, Suffolk County, Massachusetts, 02125, United States"}, "Arcadia St_Jamaica Plain": {"lat": 42.316332, "lng": -71.1002049, "address": "Arcadia Street, Roxbury, Boston, Suffolk County, Massachusetts, 02130, United States"}, "Arcadia St_North Dorchester": {"lat": 42.316332, "lng": -71.1002049, "address": "Arcadia Street, Roxbury, Boston, Suffolk County, Massachusetts, 02130, United States"}, "Ardee St_East Boston": {"lat": 42.3660817, "lng": -71.0304429, "address": "Ardee Street, Jeffries Point, East Boston, Boston, Suffolk County, Massachusetts, 02128, United States"}, "Aspinwall Rd_South Dorchester": {"lat": 42.2916572, "lng": -71.0731447, "address": "Aspinwall Road, Dorchester Center, Dorchester, Boston, Suffolk County, Massachusetts, 02124, United States"}, "Ballou Ave_South Dorchester": {"lat": 42.284784, "lng": -71.083293, "address": "Ballou Avenue, Mattapan, Boston, Suffolk County, Massachusetts, 02126, United States"}, "Austin St_Charlestown": {"lat": 42.3744936, "lng": -71.0671194, "address": "Austin Street, Charlestown, Boston, Suffolk County, Massachusetts, 02129, United States"}, "Avery St_Chinatown": {"lat": 42.3532541, "lng": -71.0626571, "address": "Avery Street, Downtown Crossing, Downtown Boston, Boston, Suffolk County, Massachusetts, 02111, United States"}, "Balsam St_South Dorchester": {"lat": 42.287021, "lng": -71.0893596, "address": "Balsam Street, Mattapan, Boston, Suffolk County, Massachusetts, 02126, United States"}, "Baxter St_South Boston": {"lat": 42.3363206, "lng": -71.0549931, "address": "Baxter Street, South Boston, Boston, Suffolk County, Massachusetts, 01125, United States"}, "Appleton St_South End": {"lat": 42.3456703, "lng": -71.0727618, "address": "Appleton Street, South End, Boston, Suffolk County, Massachusetts, 02117, United States"}, "Archdale Rd_Jamaica Plain": {"lat": 42.292405, "lng": -71.120762, "address": "Archdale Road, Forest Hills, Roslindale, Boston, Suffolk County, Massachusetts, 02131, United States"}, "Almont St_South Dorchester": {"lat": 42.276639, "lng": -71.097568, "address": "Almont Street, Mattapan, Boston, Suffolk County, Massachusetts, 02126, United States"}, "Armington St_Allston/Brighton": {"lat": 42.3524702, "lng": -71.1376143, "address": "Armington Street, Union Square, Allston, Boston, Suffolk County, Massachusetts, 02134, United States"}, "Arcola St_Jamaica Plain": {"lat": 42.3249905, "lng": -71.1092661, "address": "Arcola Street, Jamaica Plain, Boston, Suffolk County, Massachusetts, 02120, United States"}, "Ashburton Pl_Beacon Hill": {"lat": 42.3592744, "lng": -71.0627712, "address": "Ashburton Place, Beacon Hill, Boston, Suffolk County, Massachusetts, 02133, United States"}, "abbotsford st, boston, ma, roxbury": {"lat": 42.314593, "lng": -71.092528}, "aguadilla st, boston, ma, south end": {"lat": 42.341473, "lng": -71.074713}, "akron st, boston, ma, roxbury": {"lat": 42.325703, "lng": -71.085315}, "alaska st, boston, ma, roxbury": {"lat": 42.320972, "lng": -71.078491}, "amory st, boston, ma, roxbury": {"lat": 42.3144135, "lng": -71.104848}, "amory st, boston, ma, jamaica plain": {"lat": 42.3091135, "lng": -71.107929}, "acadia st, boston, ma, south boston": {"lat": 42.338182, "lng": -71.0300047}, "allston st, boston, ma, allston/brighton": {"lat": 42.3486046, "lng": -71.1376139}, "allston st, boston, ma, charlestown": {"lat": 42.3797246, "lng": -71.0640321}, "albany st, boston, ma, south end": {"lat": 42.332750494929755, "lng": -71.07455130559003}, "abbotsford st, roxbury, ma": {"lat": 42.31455763267237, "lng": -71.0924225258395}, "albany st, south end, ma": {"lat": 42.332750494929755, "lng": -71.07455130559003}, "acadia st, south boston, ma": {"lat": 42.33782790057888, "lng": -71.0299948294729}, "alaska st, roxbury, ma": {"lat": 42.321042860199995, "lng": -71.07864553128361}, "albemarle st, back bay, ma": {"lat": 42.34221825650893, "lng": -71.08334304475399}, "barry st, dorchester, ma": {"lat": 42.30888200705984, "lng": -71.0681730882282}, "alleghany st, mission hill, ma": {"lat": 42.330584486020186, "lng": -71.09960521346747}, "amory st, roxbury, ma": {"lat": 42.31443639084971, "lng": -71.10483605694797}, "amory st, jamaica plain, ma": {"lat": 42.308941919901734, "lng": -71.10804495787734}, "arlington st, boston, ma": {"lat": 42.35263544108437, "lng": -71.15989377212362}, "ashmont park, dorchester, ma": {"lat": 42.28640275147842, "lng": -71.06330827585748}, "atkinson st, dorchester, ma": {"lat": 42.33301374207086, "lng": -71.06836791831519}, "aberdeen st, boston, ma": {"lat": 42.34639296085185, "lng": -71.10383857829675}, "alpine st, roxbury, ma": {"lat": 42.32548689539253, "lng": -71.0868510374685}, "albion st, boston, ma": {"lat": 42.32203165448884, "lng": -71.07140745813494}}